{
"type": "FeatureCollection",
"name": "poi",
"crs": { "type": "name", "properties": { "name": "urn:ogc:def:crs:OGC:1.3:CRS84" } },
"features": [
{ "type": "Feature", "properties": { "name": "Hidden Creek Nature Sanctuary", "type": "park", "img": "hidden_creek.JPG", "desc": "" }, "geometry": { "type": "Point", "coordinates": [ -88.98588, 40.51748 ] } },
{ "type": "Feature", "properties": { "name": "One Normal Plaza", "type": "park", "img": "refuge_food_forest.jpg", "desc": ""  }, "geometry": { "type": "Point", "coordinates": [ -88.97406, 40.51906 ] } },
{ "type": "Feature", "properties": { "name": "Anderson Park", "type": "park", "img": "anderson_park.jpg", "desc": ""  }, "geometry": { "type": "Point", "coordinates": [ -88.97647, 40.50949 ] } },
{ "type": "Feature", "properties": { "name": "Fairview Park", "type": "park", "img": "fairview_park.jpg", "desc": ""  }, "geometry": { "type": "Point", "coordinates": [ -88.99868, 40.52261 ] } },
{ "type": "Feature", "properties": { "name": "Tipton Park", "type": "park", "img": "tipton_park.jpg", "desc": ""  }, "geometry": { "type": "Point", "coordinates": [ -88.92773, 40.50425 ] } },
{ "type": "Feature", "properties": { "name": "Wilson Cycle Shop", "type": "service", "img": "", "desc": ""  }, "geometry": { "type": "Point", "coordinates": [ -88.99395, 40.48229 ] } },
{ "type": "Feature", "properties": { "name": "Vitesse Cycle Shop", "type": "service", "img": "", "desc": ""  }, "geometry": { "type": "Point", "coordinates": [ -88.98186, 40.50878 ] } },
{ "type": "Feature", "properties": { "name": "Bloomington Cycle and Fitness", "type": "service", "img": "", "desc": ""  }, "geometry": { "type": "Point", "coordinates": [ -88.98133, 40.47980 ] } },
{ "type": "Feature", "properties": { "name": "Uptown Station", "type": "transit", "img": "", "desc": ""  }, "geometry": { "type": "Point", "coordinates": [ -88.98452, 40.50889 ] } },
{ "type": "Feature", "properties": { "name": "Downtown Bloomington Transfer Center", "type": "transit", "img": "", "desc": ""  }, "geometry": { "type": "Point", "coordinates": [ -88.99400, 40.47860 ] } }
]
}
